IDSUCURSAL,NRO_AGENTE_PF,NOMBRE,DIRECCION,LOCALIDAD,PROVINCIA,WESTERN_UNION,ENVIO_NACIONAL,PAGO_FACTURAS,RECARGA_FACIL,HS_LAV,HS_SABADO,HS_DOMINGO,LATITUD,LONGITUD
770,9902605,CORREO MONTECARLO,CMTE ANDRES GUAYCURARI 1,MONTECARLO,Misiones,1,0,1,0,Lun. a Vie. 08:00hs a 13:00hs y 16:00hs a 19:00hs,,,-26.566132,-54.765429
1198,10249302,AGENCIA ROBERTO LAFERE,AV. DEL LIBERTADOR 1237,MONTECARLO,Misiones,0,0,1,0,Lun. a Vie. 08:00hs a 12:00hs y 16:00hs a 19:00hs,Sáb. 08:00hs a 12:00hs y 16:00hs a 19:00hs,,-26.567143,-54.766124
4319,9249010,CENTRAL DE MOTOS,AV.LIBERTADOR 5011,MONTECARLO,Misiones,0,0,1,0,Lun. a Vie. 08:30hs a 12:30hs y 16:30hs a 20:30hs,Sáb. 08:30hs a 13:00hs ,,-27.392318,-55.920107
6078,8149646,COOP AGRICOLA MIXTA DE MONTECARLO LTDA,AV EL LIBERTADOR 2713,MONTECARLO,Misiones,0,1,1,0,Lun. a Vie. 07:30hs a 12:30hs y 16:00hs a 20:00hs,Sáb. 08:00hs a 12:30hs ,,-26.56946,-54.752715
4935,8149385,ORGANIZACION MEILI,ANTARTIDA ARGENTINA 40,MONTECARLO,Misiones,1,1,1,0,Lun. a Vie. 08:00hs a 12:00hs y 16:00hs a 20:00hs,Sáb. 08:00hs a 12:00hs ,,-26.570477,-54.752361
