IDSUCURSAL,NRO_AGENTE_PF,NOMBRE,DIRECCION,LOCALIDAD,PROVINCIA,WESTERN_UNION,ENVIO_NACIONAL,PAGO_FACTURAS,RECARGA_FACIL,HS_LAV,HS_SABADO,HS_DOMINGO,LATITUD,LONGITUD
437,9902233,CORREO SANTA ROSA DE CALAMUCHITA,EL NOGAL 170,SANTA ROSA DE CALAMUCHITA,Córdoba,1,0,1,0,Lun. a Vie. 08:00hs a 13:00hs y 17:00hs a 20:00hs,,,-32.070156,-64.543691
2386,8049277,VAN MARTIN,LIBERTAD 610,SANTA ROSA DE CALAMUCHITA,Córdoba,0,1,1,0,Lun. a Vie. 09:00hs a 13:00hs y 17:00hs a 20:00hs,Sáb. 10:00hs a 13:00hs ,,-32.070263,-64.536287
3759,12049983,PISIS,CALLE 5 Y CALLE 22,SANTA ROSA DE CALAMUCHITA,Córdoba,1,1,1,0,Lun. a Vie. 08:00hs a 14:00hs y 17:00hs a 21:00hs,,,-32.0796679,-64.5359067
3903,9449030,IMPRENTA M.I.S.,LIBERTAD 383,SANTA ROSA DE CALAMUCHITA,Córdoba,0,1,1,0,Lun. a Vie. 08:30hs a 12:00hs y 17:00hs a 20:30hs,Sáb. 08:30hs a 12:00hs y 17:00hs a 20:30hs,,-32.067028,-64.538354
4350,10349106,TRAMICOR I,CORDOBA 480,SANTA ROSA DE CALAMUCHITA,Córdoba,1,1,1,0,Lun. a Vie. 09:00hs a 13:00hs y 16:30hs a 20:30hs,,,-32.067142,-64.539745
5971,5449495,TRABUCO S.A. SANTA ROSA,LIBERTAD 302,SANTA ROSA DE CALAMUCHITA,Córdoba,1,1,1,0,Lun. a Vie. 08:30hs a 12:30hs y 17:00hs a 21:00hs,Sáb. 08:30hs a 12:30hs y 17:00hs a 21:00hs,,-32.06814,-64.537662
5316,12449342,CIBER MATTERA I,LIBERTAD 164,SANTA ROSA DE CALAMUCHITA,Córdoba,0,1,1,0,Lun. a Vie. 09:00hs a 13:00hs y 17:00hs a 21:00hs,Sáb. 09:00hs a 13:00hs y 17:00hs a 21:00hs,,-32.069751,-64.536784
