IDSUCURSAL,NRO_AGENTE_PF,NOMBRE,DIRECCION,LOCALIDAD,PROVINCIA,WESTERN_UNION,ENVIO_NACIONAL,PAGO_FACTURAS,RECARGA_FACIL,HS_LAV,HS_SABADO,HS_DOMINGO,LATITUD,LONGITUD
508,9902305,CORREO SAN SALVADOR,FCO. RAMIREZ 165,SAN SALVADOR,Entre Ríos,1,0,1,0,Lun. a Vie. 07:30hs a 13:00hs y 17:00hs a 20:00hs,,,-31.624449,-58.501843
1001,5149681,FARMACIA SAN SALVADOR,IRIGOYEN 201,SAN SALVADOR,Entre Ríos,0,1,1,0,Lun. a Vie. 08:00hs a 12:30hs y 16:00hs a 20:45hs,Sáb. 08:00hs a 12:30hs y 16:00hs a 20:45hs,,-31.626765,-58.507497
2442,6149299,DIA EXPRESS (SAN SALVADOR),BOULEVARD VILLAGUAY 74,SAN SALVADOR,Entre Ríos,0,1,1,0,Lun. a Vie. 08:00hs a 20:00hs ,Sáb. 08:00hs a 20:00hs ,Dom. 08:00hs a 12:00hs ,-31.623311,-58.504429
3997,5449457,ELECTROGAR SAN SALVADOR,URQUIZA 443,SAN SALVADOR,Entre Ríos,1,1,1,0,Lun. a Vie. 08:00hs a 12:00hs y 16:00hs a 20:00hs,Sáb. 08:00hs a 12:00hs y 16:00hs a 20:00hs,,-31.628538,-58.508216
5135,8159281,AGL SEGUROS MACIEL,VUELTA DE OBIGADO 436,SAN SALVADOR,Entre Ríos,0,0,1,0,Lun. a Vie. 08:00hs a 12:00hs y 16:00hs a 20:00hs,Sáb. 08:00hs a 12:00hs ,,-30.979081,-57.925018
