IDSUCURSAL,NRO_AGENTE_PF,NOMBRE,DIRECCION,LOCALIDAD,PROVINCIA,WESTERN_UNION,ENVIO_NACIONAL,PAGO_FACTURAS,RECARGA_FACIL,HS_LAV,HS_SABADO,HS_DOMINGO,LATITUD,LONGITUD
827,9902673,CORREO CHOELE CHOEL,GRAL JOSE DE SAN MARTIN 1298,CHOELE CHOEL,Río Negro,1,0,1,0,Lun. a Vie. 08:00hs a 13:00hs y 16:00hs a 19:00hs,,,-39.294722,-65.659564
1702,9749082,ALMACEN SUSI,BELGRANO 50,CHOELE CHOEL,Río Negro,0,0,1,0,Lun. a Vie. 09:00hs a 13:00hs y 18:00hs a 22:00hs,Sáb. 09:00hs a 13:00hs y 18:00hs a 22:00hs,Dom. 10:00hs a 13:00hs y 19:00hs a 21:00hs,-39.285935,-65.672622
3722,6427012,COOP. OBRERA CHOELE CHOEL (66),AVELLANEDA 872,CHOELE CHOEL,Río Negro,0,0,1,0,Lun. a Vie. 08:30hs a 13:00hs y 16:30hs a 21:00hs,Sáb. 08:30hs a 21:30hs ,Dom. 09:00hs a 13:00hs ,39.295584,-65.656677
3724,6427013,COOP. OBRERA CHOELE CHOEL (101),NICOLAS AVELLANEDA 940,CHOELE CHOEL,Río Negro,0,0,1,0,Lun. a Vie. 08:30hs a 13:00hs y 16:30hs a 21:30hs,Sáb. 08:30hs a 21:30hs ,Dom. 09:00hs a 13:00hs ,-39.295584,-65.656677
5918,8159585,AGL SEGUROS CAFFE ANDRES,SAN MARTIN 1327,CHOELE CHOEL,Río Negro,0,1,1,0,Lun. a Vie. 09:00hs a 18:00hs ,,,-35.639574,-64.357797
