IDSUCURSAL,NRO_AGENTE_PF,NOMBRE,DIRECCION,LOCALIDAD,PROVINCIA,WESTERN_UNION,ENVIO_NACIONAL,PAGO_FACTURAS,RECARGA_FACIL,HS_LAV,HS_SABADO,HS_DOMINGO,LATITUD,LONGITUD
3527,5321002,ECO 8,PANAMERICANA KM 46,KILOMETRO 61,Buenos Aires,0,0,1,0,Lun. a Vie. 09:00hs a 13:00hs y 16:00hs a 20:00hs,Sáb. 09:00hs a 13:00hs y 16:00hs a 20:00hs,Dom. 09:00hs a 13:00hs y 16:00hs a 20:00hs,-34.448867,-58.74874
3615,5321003,ECO 7,RIVADAVIA 840,KILOMETRO 61,Buenos Aires,0,1,1,0,Lun. a Vie. 08:00hs a 13:00hs y 16:00hs a 21:00hs,Sáb. 08:00hs a 13:00hs y 16:00hs a 21:00hs,,-34.460927,-58.913088
4440,12149072,MA-GUI,SAN MARTIN 857,KILOMETRO 61,Buenos Aires,0,1,1,0,Lun. a Vie. 08:00hs a 20:00hs ,,,-34.461137,-58.91456
4553,10249965,AGENCIA SAN JOSE,AV. TRATADO DE PILAR 80,KILOMETRO 61,Buenos Aires,0,1,1,0,Lun. a Vie. 08:00hs a 20:00hs ,,,-34.712115,-58.292319
5064,8149394,ULLA SEGUROS,TUCUMAN 15,KILOMETRO 61,Buenos Aires,0,1,1,0,Lun. a Vie. 09:00hs a 18:00hs ,,,-34.455058,-58.907705
5119,8149442,BENITEZ SEGUROS,H. YRIGOYEN 485,KILOMETRO 61,Buenos Aires,0,1,1,0,Lun. a Vie. 09:00hs a 13:30hs y 15:30hs a 18:00hs,,,-34.458019,-58.911532
5169,8159289,AGL LUCERO SEGUROS PILAR,ESTANISLAO LOPEZ 742,KILOMETRO 61,Buenos Aires,0,0,1,0,Lun. a Vie. 09:00hs a 18:00hs ,,,-34.454507,-58.915486
5295,8159325,AGL ORGANIZACION AJR PILAR,TUCUMAN 562,KILOMETRO 61,Buenos Aires,0,0,1,0,Lun. a Vie. 09:00hs a 18:00hs ,,,-34.455723,-58.912792
