IDSUCURSAL,NRO_AGENTE_PF,NOMBRE,DIRECCION,LOCALIDAD,PROVINCIA,WESTERN_UNION,ENVIO_NACIONAL,PAGO_FACTURAS,RECARGA_FACIL,HS_LAV,HS_SABADO,HS_DOMINGO,LATITUD,LONGITUD
811,9902652,CORREO ESQUINA,BARTOLOME MITRE 810,ESQUINA,Corrientes,1,0,1,0,Lun. a Vie. 07:00hs a 12:30hs y 16:30hs a 19:30hs,,,-29.161868,-59.265833
3694,10249847,AGENCIA PULULINA,MORENO 437 SUR,ESQUINA,Corrientes,0,1,1,0,Lun. a Vie. 08:00hs a 14:00hs y 16:00hs a 21:00hs,Sáb. 08:00hs a 14:00hs y 16:00hs a 21:00hs,Dom. 10:00hs a 14:00hs y 18:00hs a 22:00hs,-30.009016,-59.527649
4052,12349044,CABINA SANTA RITA,BME MITRE 1743,ESQUINA,Corrientes,1,1,1,0,Lun. a Vie. 08:00hs a 13:00hs y 15:00hs a 22:00hs,Sáb. 08:00hs a 13:00hs y 15:00hs a 22:00hs,Dom. 08:00hs a 13:00hs y 15:00hs a 22:00hs,-30.012522,-59.524862
4992,9759154,AGL  NEGRO DE LA SUERTE,AV. MANCCINI Y REMEDIO DE ESCALADA,ESQUINA,Corrientes,0,0,1,0,Lun. a Vie. 08:00hs a 13:00hs y 16:00hs a 21:00hs,Sáb. 08:00hs a 13:00hs y 16:00hs a 21:00hs,,-30.011799,-59.519575
5203,12449334,BICENTENARIO,B BICENTENARIO MZA B CASA 3 SECTOR 133,ESQUINA,Corrientes,0,1,1,0,Lun. a Vie. 08:00hs a 23:59hs ,Sáb. 08:00hs a 23:59hs ,Dom. 09:00hs a 23:59hs ,-30.000817,-59.52408
5280,8749227,COMERCIALIZADORA DEL SUR,SCHWEIZER 824,ESQUINA,Corrientes,0,1,1,0,Lun. a Vie. 08:00hs a 12:00hs y 16:30hs a 21:00hs,Sáb. 08:00hs a 12:00hs ,,-30.015787,-59.52871
6045,8159622,AGL SEGUROS M-B,AV. 9 DE JULIO 1114 RUTA N 12,ESQUINA,Corrientes,0,0,1,0,Lun. a Vie. 08:00hs a 12:30hs y 16:30hs a 20:30hs,Sáb. 08:00hs a 13:00hs ,,-33.107345,-61.703805
5557,8159454,AGL SEGUROS VELAZCO,GRAL. VELAZCO 1045,ESQUINA,Corrientes,0,0,1,0,Lun. a Vie. 08:00hs a 12:00hs y 16:00hs a 20:00hs,Sáb. 08:00hs a 12:00hs ,,-30.012874,-59.529493
