IDSUCURSAL,NRO_AGENTE_PF,NOMBRE,DIRECCION,LOCALIDAD,PROVINCIA,WESTERN_UNION,ENVIO_NACIONAL,PAGO_FACTURAS,RECARGA_FACIL,HS_LAV,HS_SABADO,HS_DOMINGO,LATITUD,LONGITUD
4510,12449207,TOTAL PAYMENT OPEN ESMERALDA,ESMERALDA 999,CAPITAL FEDERAL,Capital Federal,1,1,1,0,Lun. a Vie. 10:00hs a 19:00hs ,,,-34.596393,-58.378311
6228,,CORREO COMANDO EJERCICIOS (SIN ATENCI¿ AL P¿LICO,AZOPARDO  250,CAPITAL FEDERAL,Capital Federal,1,0,0,0,Lun. a Vie. 0800 A 1300,,,-34.610136061225,-58.368041469388
5824,8159500,AGL PF INDIANA,SANTIAGO DEL ESTERO 286 PISO 1 DTO 6,CAPITAL FEDERAL,Capital Federal,0,0,1,0,Lun. a Vie. 09:00hs a 18:00hs ,,,-34.611939,-58.384634
5860,8149573,PF GROUP,VIAMONTE 759 P 2 DPTO 1,CAPITAL FEDERAL,Capital Federal,1,1,1,0,Lun. a Vie. 09:00hs a 18:00hs ,,,-34.599962,-58.377531
5863,8159572,AGL SEGUROS BARTOLO,JUAN DOMINGO PERON 1963 6D,CAPITAL FEDERAL,Capital Federal,0,0,1,0,Lun. a Vie. 10:00hs a 18:00hs ,,,-34.606762,-58.394443
6090,8149661,LA SEGUNDA COMPANIA DE SEGUROS CABA,AV. EDUARDO MADERO 942 PISO 17,CAPITAL FEDERAL,Capital Federal,0,0,1,0,Lun. a Vie. 09:00hs a 18:00hs ,,,-34.596464,-58.370715
4917,12449294,KAYROS,MARO BRAVO 1205,CAPITAL FEDERAL,Capital Federal,1,1,1,0,Lun. a Vie. 12:00hs a 20:00hs ,,,-34.595516,-58.414787
