IDSUCURSAL,NRO_AGENTE_PF,NOMBRE,DIRECCION,LOCALIDAD,PROVINCIA,WESTERN_UNION,ENVIO_NACIONAL,PAGO_FACTURAS,RECARGA_FACIL,HS_LAV,HS_SABADO,HS_DOMINGO,LATITUD,LONGITUD
541,9902338,CORREO FIRMAT,AV. BERNARDINO RIVADAVIA 1235,FIRMAT,Santa Fe,1,0,1,0,Lun. a Vie. 08:00hs a 13:00hs y 16:00hs a 19:30hs,,,-33.45349288,-61.48693886
1210,6449152,SOC.ITALIANA SOC. MUTUOS UN.Y BENEV.,AV. SANTA FE 1179,FIRMAT,Santa Fe,0,1,1,0,Lun. a Vie. 07:00hs a 15:00hs ,,,-33.45857229,-61.48662306
1494,11849004,FARMACIA TRUCCO,LIBERTAD 1680,FIRMAT,Santa Fe,0,1,1,0,Lun. a Vie. 08:30hs a 12:30hs y 16:30hs a 19:30hs,Sáb. 08:30hs a 12:30hs ,,-33.46145816,-61.49230471
2942,10249716,SUENOS,CORDOBA 1261,FIRMAT,Santa Fe,0,1,1,0,Lun. a Vie. 08:00hs a 13:00hs y 16:00hs a 20:30hs,Sáb. 08:00hs a 13:00hs y 16:00hs a 20:30hs,,-33.456007,-61.487882
3660,10249841,TOMBOLA ROMAGNOLI,LIBERTAD 785,FIRMAT,Santa Fe,0,1,1,0,Lun. a Vie. 08:30hs a 13:30hs y 15:30hs a 19:00hs,,,-33.462025,-61.481831
5735,8159518,AGL SEGUROS ISERN DE LUPPI,AV SANTA FE 1265,FIRMAT,Santa Fe,0,0,1,0,Lun. a Vie. 07:00hs a 12:00hs y 15:30hs a 20:00hs,Sáb. 09:00hs a 12:00hs ,,-33.458546,-61.487795
