IDSUCURSAL,NRO_AGENTE_PF,NOMBRE,DIRECCION,LOCALIDAD,PROVINCIA,WESTERN_UNION,ENVIO_NACIONAL,PAGO_FACTURAS,RECARGA_FACIL,HS_LAV,HS_SABADO,HS_DOMINGO,LATITUD,LONGITUD
328,9902107,CORREO RAFAEL CASTILLO,SANTA CRUZ 1071,RAFAEL CASTILLO,Buenos Aires,1,0,1,0,Lun. a Vie. 10:00hs a 18:00hs ,,,-34.700252,-58.623714
2284,9749166,APROVISIONAMIENTO DEL PIONERO,EUSTAQUIO BRUIX 819,RAFAEL CASTILLO,Buenos Aires,1,1,1,0,Lun. a Vie. 08:30hs a 13:30hs y 17:00hs a 20:00hs,Sáb. 08:30hs a 13:30hs y 17:00hs a 20:00hs,,-34.69751027,-58.61526545
2168,12249036,LOCUTORIO CASTILLO,SANTA CRUZ 1096,RAFAEL CASTILLO,Buenos Aires,1,1,1,0,Lun. a Vie. 08:30hs a 14:00hs y 15:00hs a 18:00hs,Sáb. 08:30hs a 13:00hs ,,-34.699795,-58.624012
2542,5319178,CARREFOUR EXPRESS (0483),AV. C.CASARES 642,RAFAEL CASTILLO,Buenos Aires,0,0,1,0,Lun. a Vie. 08:00hs a 22:00hs ,Sáb. 08:00hs a 22:00hs ,Dom. 11:00hs a 20:00hs ,-34.71919,-58.596626
2831,12249091,TELEFONICA CASTILLO 3,VICTORINO DE LA PLAZA 1163,RAFAEL CASTILLO,Buenos Aires,1,1,1,0,Lun. a Vie. 08:30hs a 13:00hs y 16:00hs a 20:30hs,Sáb. 08:30hs a 13:00hs y 16:00hs a 20:30hs,,-34.699901,-58.625246
3188,12049677,MAXIKIOSCO LAUTARO II,SANTA CRUZ 1122,RAFAEL CASTILLO,Buenos Aires,0,1,1,0,Lun. a Vie. 07:00hs a 20:00hs ,Sáb. 07:00hs a 20:00hs ,,-34.699823,-58.623774
5259,8249103,AGENCIA VALERIA,RAMON LISTA 581,RAFAEL CASTILLO,Buenos Aires,0,1,1,0,Lun. a Vie. 09:00hs a 13:00hs y 16:00hs a 19:00hs,Sáb. 09:00hs a 13:00hs ,,-34.697209,-58.611746
5409,10359076,AGL SEGUROS LE,C CASARES 1347,RAFAEL CASTILLO,Buenos Aires,0,0,1,0,Lun. a Vie. 09:00hs a 17:30hs ,Sáb. 09:00hs a 13:00hs ,,-34.703245,-58.618762
