IDSUCURSAL,NRO_AGENTE_PF,NOMBRE,DIRECCION,LOCALIDAD,PROVINCIA,WESTERN_UNION,ENVIO_NACIONAL,PAGO_FACTURAS,RECARGA_FACIL,HS_LAV,HS_SABADO,HS_DOMINGO,LATITUD,LONGITUD
491,9902287,CORREO SANTA ROSA - C (LP),BERNARDINO RIVADAVIA 202,SANTA ROSA,La Pampa,1,0,1,0,Lun. a Vie. 08:00hs a 13:00hs y 16:00hs a 19:00hs,,,-36.618893,-64.287303
1899,8149206,BANCA TEX,H. YRIGOYEN 368,SANTA ROSA,La Pampa,1,1,1,0,Lun. a Vie. 08:00hs a 12:30hs y 16:30hs a 20:30hs,Sáb. 08:00hs a 13:00hs ,,-36.619889,-64.286393
2895,8118044,COREFIN (SANTA ROSA),PELLEGRINI 290,SANTA ROSA,La Pampa,0,0,1,0,Lun. a Vie. 08:30hs a 13:00hs y 16:30hs a 20:30hs,Sáb. 09:00hs a 13:00hs ,,-36.619362,-64.292585
3961,5349374,SUPERMERCADO FER-NI,RAUL B. DIAZ 1755,SANTA ROSA,La Pampa,1,1,1,0,Lun. a Vie. 09:00hs a 12:00hs y 17:30hs a 20:30hs,Sáb. 09:00hs a 12:00hs ,,-36.600345,-64.289823
6592,,CORREO SANTA ROSA - 1 (REGION SUR),CENTRO CIVICO SIN NUMERO,SANTA ROSA,La Pampa,1,0,0,0,Lun. a Vie. 0800 A 1300,,,-36.624973,-64.286187
5692,6149358,EL CENCERRO AUTOSERVICIO,MANUEL AVILA 395,SANTA ROSA,La Pampa,0,1,1,0,Lun. a Vie. 08:00hs a 19:00hs ,Sáb. 08:00hs a 19:00hs ,,-36.631118,-64.277055
5737,8149548,ARG BROKER - PICO,CALLE 14 NUM 63,SANTA ROSA,La Pampa,0,1,1,0,Lun. a Vie. 08:00hs a 17:00hs ,,,-35.657801,-63.763171
5525,6949570,LO DE COCO,AUTONOMISTA 856,SANTA ROSA,La Pampa,1,1,1,0,Lun. a Vie. 08:00hs a 13:30hs y 17:00hs a 20:30hs,Sáb. 08:00hs a 13:30hs y 17:00hs a 20:30hs,,-36.62641,-64.296796
4891,12449288,KIOSKO UNANUE,UNANUE 1324,SANTA ROSA,La Pampa,1,1,1,0,Lun. a Vie. 08:30hs a 13:30hs y 16:30hs a 21:00hs,Sáb. 08:30hs a 13:30hs y 16:30hs a 21:00hs,,-36.641571,-64.297944
