IDSUCURSAL,NRO_AGENTE_PF,NOMBRE,DIRECCION,LOCALIDAD,PROVINCIA,WESTERN_UNION,ENVIO_NACIONAL,PAGO_FACTURAS,RECARGA_FACIL,HS_LAV,HS_SABADO,HS_DOMINGO,LATITUD,LONGITUD
447,9902243,CORREO SAN FRANCISCO(CO),JUAN B. ALBERDI 198,SAN FRANCISCO,Córdoba,1,0,1,0,Lun. a Vie. 08:00hs a 13:00hs y 17:00hs a 20:00hs,,,-31.428152,-62.085602
1359,9349017,ZAPATERIA 4 M,VENEZUELA 250,SAN FRANCISCO,Córdoba,1,1,1,0,Lun. a Vie. 08:00hs a 13:00hs y 16:30hs a 20:00hs,Sáb. 09:00hs a 13:00hs y 16:30hs a 20:00hs,,-31.42896959,-62.10852337
2232,7549936,PROVEDURIA SAN FRANCISCO,ITURRASPE 1742,SAN FRANCISCO,Córdoba,0,1,1,0,Lun. a Vie. 07:30hs a 23:00hs ,Sáb. 07:30hs a 01:00hs ,,-31.42912251,-62.08522333
2546,12049491,LOS NANOS,ITURRASPE 1414,SAN FRANCISCO,Córdoba,0,1,1,0,Lun. a Vie. 09:00hs a 13:00hs y 16:30hs a 21:00hs,Sáb. 09:00hs a 13:00hs ,,-31.429124,-62.081745
2648,7249103,AJF DISTRIBUIDORA,ITURRASPE 2606,SAN FRANCISCO,Córdoba,0,1,1,0,Lun. a Vie. 08:00hs a 12:00hs y 15:30hs a 19:30hs,Sáb. 08:30hs a 12:00hs ,,-31.426995,-62.094765
3606,10249833,COOPECOR TIMBA S I,GARIBALDI 229,SAN FRANCISCO,Córdoba,1,1,1,0,Lun. a Vie. 08:00hs a 14:00hs y 16:00hs a 21:00hs,Sáb. 08:00hs a 14:00hs y 18:00hs a 21:00hs,,-31.428539,-62.077824
3652,6949497,LUBRICENTRO CHONGO,ITURRASPE 867,SAN FRANCISCO,Córdoba,1,1,1,0,Lun. a Vie. 08:00hs a 13:00hs y 16:00hs a 20:00hs,,,-31.430101,-62.075631
4278,6949537,COTILLON Y LIBRERIA ALEGRIA,CASEROS 687/95,SAN FRANCISCO,Córdoba,0,1,1,0,Lun. a Vie. 07:30hs a 13:00hs y 17:00hs a 19:00hs,Sáb. 07:30hs a 13:00hs y 17:00hs a 19:00hs,,-31.434693,-62.098324
4860,8749213,EMUGAS,9 DE JULIO 2356,SAN FRANCISCO,Córdoba,0,0,1,0,Lun. a Vie. 07:30hs a 13:00hs ,,,-31.429643,-62.092753
