IDSUCURSAL,NRO_AGENTE_PF,NOMBRE,DIRECCION,LOCALIDAD,PROVINCIA,WESTERN_UNION,ENVIO_NACIONAL,PAGO_FACTURAS,RECARGA_FACIL,HS_LAV,HS_SABADO,HS_DOMINGO,LATITUD,LONGITUD
703,9902525,CORREO SAN PEDRO(BA),OBLIGADO 58,SAN PEDRO,Buenos Aires,1,0,1,0,Lun. a Vie. 09:00hs a 17:00hs ,,,-33.67950129,-59.66578329
1119,7049319,POLIRUBRO LA AVENIDA,3 DE FEBRERO 1820,SAN PEDRO,Buenos Aires,1,1,1,0,Lun. a Vie. 08:00hs a 20:00hs ,Sáb. 08:00hs a 20:00hs ,,-33.68853496,-59.65367665
2227,10449015,ES LO QUE HAY,SAN LORENZO 880,SAN PEDRO,Buenos Aires,0,1,1,0,Lun. a Vie. 08:00hs a 21:00hs ,Sáb. 08:00hs a 21:00hs ,Dom. 08:00hs a 21:00hs ,-33.67058202,-59.66850853
2665,11949156,EXESSO MAXIKIOSCO,MITRE 940,SAN PEDRO,Buenos Aires,1,1,1,0,Lun. a Vie. 08:00hs a 20:00hs ,,,-33.679499,-59.666509
4754,8022051,SYN FIRMAPAZ NATALIA (560),JUAN B JUSTO 15,SAN PEDRO,Buenos Aires,0,0,1,0,Lun. a Vie. 07:00hs a 23:59hs ,Sáb. 07:00hs a 23:59hs ,,-33.691837,-59.676842
5981,8159599,AGL SEGUROS REY,MITRE 2320,SAN PEDRO,Buenos Aires,0,0,1,0,Lun. a Vie. 08:30hs a 17:00hs ,,,-33.688105,-59.673795
