IDSUCURSAL,NRO_AGENTE_PF,NOMBRE,DIRECCION,LOCALIDAD,PROVINCIA,WESTERN_UNION,ENVIO_NACIONAL,PAGO_FACTURAS,RECARGA_FACIL,HS_LAV,HS_SABADO,HS_DOMINGO,LATITUD,LONGITUD
322,9902101,CORREO VALENTIN ALSINA,JUAN FARRELL 664,VALENTIN ALSINA,Buenos Aires,1,0,1,0,Lun. a Vie. 10:00hs a 18:00hs ,,,-34.67399,-58.40484
2524,5319160,CARREFOUR EXPRESS (0463),J.D.PERON 2640,VALENTIN ALSINA,Buenos Aires,0,0,1,0,Lun. a Vie. 08:00hs a 22:00hs ,Sáb. 08:00hs a 22:00hs ,Dom. 11:00hs a 20:00hs ,-34.673604,-58.406113
3101,11949219,POLIRUBRO DELICIA,PTE. PERON 3402,VALENTIN ALSINA,Buenos Aires,1,1,1,0,Lun. a Vie. 09:00hs a 18:00hs ,,,-34.66894,-58.412345
3804,5349370,SUELEN,JORGE O BON 1825,VALENTIN ALSINA,Buenos Aires,0,1,1,0,Lun. a Vie. 09:00hs a 13:30hs y 17:00hs a 20:00hs,,,-34.672844,-58.409401
5167,8159298,AGL SEGUROS JN MENDES,CHOELE CHOEL 456,VALENTIN ALSINA,Buenos Aires,0,0,1,0,Lun. a Vie. 09:00hs a 18:00hs ,,,-34.668837,-58.407715
