IDSUCURSAL,NRO_AGENTE_PF,NOMBRE,DIRECCION,LOCALIDAD,PROVINCIA,WESTERN_UNION,ENVIO_NACIONAL,PAGO_FACTURAS,RECARGA_FACIL,HS_LAV,HS_SABADO,HS_DOMINGO,LATITUD,LONGITUD
144,6449044,SOC.ITALIANA DE SOC.MUT.XX DE SEPTIEMBRE,CALLE 20 NRO 1101 - 1127,LAS PAREJAS,Santa Fe,0,1,1,0,Lun. a Vie. 08:00hs a 11:30hs y 15:30hs a 18:30hs,,,-32.686594,-61.5149
715,9902544,CORREO LAS PAREJAS,CALLE 16 NRO 856,LAS PAREJAS,Santa Fe,1,0,1,0,Lun. a Vie. 08:00hs a 13:00hs y 15:00hs a 18:30hs,,,-32.684681,-61.519457
1129,6449126,ASOC.MUTUAL DEL SPORTIVO ATLETICO CLUB,CALLE 24 NRO 940,LAS PAREJAS,Santa Fe,0,1,1,0,Lun. a Vie. 08:00hs a 11:45hs y 17:00hs a 18:15hs,,,-32.684563,-61.512891
1677,5414007,GARCIA Y OLIVERO (LAS PAREJAS),CALLE 16 Y AV. 21,LAS PAREJAS,Santa Fe,0,0,1,0,Lun. a Vie. 08:00hs a 12:00hs y 16:00hs a 20:00hs,Sáb. 08:00hs a 12:30hs ,,-32.679534,-61.522247
1938,5449391,FUSSETTI HOGAR VI,CALLE 20 Y CALLE 23,LAS PAREJAS,Santa Fe,0,0,1,0,Lun. a Vie. 08:00hs a 12:00hs y 15:30hs a 19:30hs,Sáb. 08:00hs a 12:00hs ,,-32.677565,-61.519758
4775,8749207,G.V. 2,CALLE 5 NRO 1179 BIS,LAS PAREJAS,Santa Fe,0,1,1,0,Lun. a Vie. 09:00hs a 13:00hs y 16:00hs a 19:00hs,,,-32.688536,-61.517775
5313,8159354,AGL SEGUROS TORASSA,CALLE 22  N 814,LAS PAREJAS,Santa Fe,0,0,1,0,Lun. a Vie. 08:00hs a 12:00hs y 15:30hs a 19:30hs,,,-32.681825,-61.51604
