IDSUCURSAL,NRO_AGENTE_PF,NOMBRE,DIRECCION,LOCALIDAD,PROVINCIA,WESTERN_UNION,ENVIO_NACIONAL,PAGO_FACTURAS,RECARGA_FACIL,HS_LAV,HS_SABADO,HS_DOMINGO,LATITUD,LONGITUD
67,6949065,POLIRRUBROS BOCHINCHE,THORNE 1458,PARQUE CHACABUCO,Capital Federal,1,1,1,0,Lun. a Vie. 08:30hs a 13:30hs y 16:00hs a 20:00hs,Sáb. 09:30hs a 13:00hs y 17:00hs a 20:00hs,,-34.639489,-58.444495
232,9902005,CORREO CABALLITO,AV. RIVADAVIA 5337,PARQUE CHACABUCO,Capital Federal,1,0,1,0,Lun. a Vie. 10:00hs a 18:00hs ,,,-34.61978136,-58.44052118
237,9902010,CORREO DIRECTORIO,AV. DIRECTORIO 552,PARQUE CHACABUCO,Capital Federal,1,0,1,0,Lun. a Vie. 10:00hs a 18:00hs ,,,-34.628031,-58.434885
275,9902049,CORREO PARQUE CHACABUCO,CURAPALIGUE 815,PARQUE CHACABUCO,Capital Federal,1,0,1,0,Lun. a Vie. 10:00hs a 18:00hs ,,,-34.63330857,-58.449121
1453,8049133,SERVICIOS ANA FRANK,DEL BARCO CENTENERA 1360,PARQUE CHACABUCO,Capital Federal,1,1,1,0,Lun. a Vie. 09:00hs a 17:00hs ,Sáb. 09:00hs a 13:00hs ,,-34.63484478,-58.43477567
2495,5319243,CARREFOUR EXPRESS (0572),CENTENERA 1282,PARQUE CHACABUCO,Capital Federal,0,0,1,0,Lun. a Vie. 08:00hs a 22:00hs ,Sáb. 08:00hs a 22:00hs ,Dom. 11:00hs a 20:00hs ,-34.634328,-58.435883
2788,5319040,CARREFOUR EXPRESS (0324),DIRECTORIO 1766,PARQUE CHACABUCO,Capital Federal,0,0,1,0,Lun. a Vie. 08:00hs a 22:00hs ,Sáb. 08:00hs a 22:00hs ,Dom. 11:00hs a 20:00hs ,-34.631001,-58.45263
3859,11949388,POLIRUBRO ANALIA,AV. COBO 1511,PARQUE CHACABUCO,Capital Federal,1,1,1,0,Lun. a Vie. 09:00hs a 13:00hs y 15:00hs a 20:00hs,Sáb. 09:00hs a 16:00hs ,,-34.642478,-58.436603
4015,8749151,AGENCIA PILAR Y EL FLACO CHACABUCO,AV. VERNET 223,PARQUE CHACABUCO,Capital Federal,1,1,1,0,Lun. a Vie. 09:00hs a 19:00hs ,,,-34.632778,-58.428574
