IDSUCURSAL,NRO_AGENTE_PF,NOMBRE,DIRECCION,LOCALIDAD,PROVINCIA,WESTERN_UNION,ENVIO_NACIONAL,PAGO_FACTURAS,RECARGA_FACIL,HS_LAV,HS_SABADO,HS_DOMINGO,LATITUD,LONGITUD
169,5207020,AXION DEL TEJAR (718),AV. MONROE 3078,COGHLAN,Capital Federal,0,0,0,1,Lun. a Vie. 00:00hs a 24:00hs ,Sáb. 00:00hs a 24:00hs ,Dom. 00:00hs a 24:00hs ,-34.5619259,-58.46611859
6,5149043,FARMACIA COGHLAN,MANUEL UGARTE 3799,COGHLAN,Capital Federal,0,1,1,0,Lun. a Vie. 09:00hs a 12:00hs y 16:30hs a 20:00hs,Sáb. 09:00hs a 12:00hs ,,-34.563437,-58.475934
231,9902004,CORREO BELGRANO,AV. CABILDO 2349,COGHLAN,Capital Federal,1,0,1,0,Lun. a Vie. 10:00hs a 18:00hs ,,,-34.55952733,-58.4587238
1297,10249349,AGENCIA BALBIN,AV. BALBIN 2610,COGHLAN,Capital Federal,1,1,1,0,Lun. a Vie. 09:00hs a 19:30hs ,Sáb. 09:00hs a 13:30hs ,,-34.56145673,-58.46766688
2704,5319222,CARREFOUR EXPRESS (0551),MONROE 3576,COGHLAN,Capital Federal,0,0,1,0,Lun. a Vie. 08:00hs a 22:00hs ,Sáb. 08:00hs a 22:00hs ,Dom. 11:00hs a 20:00hs ,-34.565329,-58.471126
3002,5319364,CARREFOUR EXPRESS (617),MONROE 3131,COGHLAN,Capital Federal,0,0,1,0,Lun. a Vie. 08:00hs a 22:00hs ,Sáb. 08:00hs a 22:00hs ,Dom. 11:00hs a 20:00hs ,-34.562497,-58.466857
