IDSUCURSAL,NRO_AGENTE_PF,NOMBRE,DIRECCION,LOCALIDAD,PROVINCIA,WESTERN_UNION,ENVIO_NACIONAL,PAGO_FACTURAS,RECARGA_FACIL,HS_LAV,HS_SABADO,HS_DOMINGO,LATITUD,LONGITUD
1233,8849736,LOCUTORIO RICCI II,AV. BUENOS AIRES 693,GENERAL MADARIAGA,Buenos Aires,0,1,1,0,Lun. a Vie. 07:00hs a 14:00hs ,Sáb. 08:00hs a 14:00hs ,,-36.99329522,-57.13118329
3172,12249119,LOCUTORIO RICCI 1,M. GUERRERO 1858,GENERAL MADARIAGA,Buenos Aires,0,1,1,0,Lun. a Vie. 08:00hs a 18:00hs ,Sáb. 08:00hs a 13:00hs ,,-37.12402,-56.863182
3592,12049924,KIOSCO LA CENTRAL,SARMIENTO 928,GENERAL MADARIAGA,Buenos Aires,0,1,1,0,Lun. a Vie. 08:00hs a 22:00hs ,Sáb. 08:00hs a 22:00hs ,,-36.996488,-57.138494
4252,11949478,POLIRUBRO LO DE PAVON,CALLE 8 NRO 2264,GENERAL MADARIAGA,Buenos Aires,1,1,1,0,Lun. a Vie. 08:30hs a 23:00hs ,,,-37.013916,-57.126845
5867,8149578,PF GROUP 6,MARTINEZ GUERRERO 1599,GENERAL MADARIAGA,Buenos Aires,0,1,1,0,Lun. a Vie. 09:00hs a 18:00hs ,,,-37.111723,-56.866247
