IDSUCURSAL,NRO_AGENTE_PF,NOMBRE,DIRECCION,LOCALIDAD,PROVINCIA,WESTERN_UNION,ENVIO_NACIONAL,PAGO_FACTURAS,RECARGA_FACIL,HS_LAV,HS_SABADO,HS_DOMINGO,LATITUD,LONGITUD
136,6449037,A.M.A.S.C.A. I,J.B. JUSTO 446,SUNCHALES,Santa Fe,0,1,1,0,Lun. a Vie. 07:15hs a 13:15hs ,,,-30.946025,-61.56091
521,9902318,CORREO SUNCHALES,AV. BELGRANO 192,SUNCHALES,Santa Fe,1,0,1,0,Lun. a Vie. 07:30hs a 13:00hs y 16:00hs a 19:00hs,,,-30.943163,-61.561139
1788,6349064,PIOVANO COMUNICACIONES SUNCHALES,JUAN B. JUSTO 726 LOC 3,SUNCHALES,Santa Fe,0,1,1,0,Lun. a Vie. 08:00hs a 12:00hs y 15:00hs a 20:00hs,,,-30.945295,-61.558049
5091,8149410,TORCOLI SEGUROS,BELGRANO 564,SUNCHALES,Santa Fe,0,0,1,0,Lun. a Vie. 08:00hs a 12:00hs y 15:30hs a 19:30hs,Sáb. 09:00hs a 12:30hs ,,-30.939492,-61.562208
5610,8149513,MINARDI,AVENIDA SARMIENTO 531,SUNCHALES,Santa Fe,1,1,1,0,Lun. a Vie. 08:00hs a 12:00hs y 16:00hs a 20:00hs,,,-30.949757,-61.559154
