IDSUCURSAL,NRO_AGENTE_PF,NOMBRE,DIRECCION,LOCALIDAD,PROVINCIA,WESTERN_UNION,ENVIO_NACIONAL,PAGO_FACTURAS,RECARGA_FACIL,HS_LAV,HS_SABADO,HS_DOMINGO,LATITUD,LONGITUD
507,9902304,CORREO COLON (ER),12 DE ABRIL 431,COLON,Entre Ríos,1,0,1,0,Lun. a Vie. 07:30hs a 13:00hs y 17:00hs a 20:00hs,,,-32.22322775,-58.1411625
905,8149108,TARJETA CONSUMAX COLON,URQUIZA 293,COLON,Entre Ríos,0,0,1,0,Lun. a Vie. 08:00hs a 16:00hs ,,,-32.21992208,-58.13623233
1918,5649009,MILENIUM,12 DE ABRIL 282,COLON,Entre Ríos,1,1,1,0,Lun. a Vie. 09:00hs a 12:00hs y 17:00hs a 20:00hs,Sáb. 09:00hs a 12:00hs y 17:00hs a 20:00hs,,-32.2213985,-58.13849375
3028,11949202,EMA PC,SAN MARTIN 1120,COLON,Entre Ríos,0,1,1,0,Lun. a Vie. 09:00hs a 13:00hs y 18:00hs a 21:00hs,Sáb. 09:00hs a 13:00hs y 18:00hs a 21:00hs,,-32.230727,-58.153021
3915,9849158,MAXIKIOSCO TOBIAS,LUCILO GONZALES 228,COLON,Entre Ríos,0,1,1,0,Lun. a Vie. 08:00hs a 13:00hs y 17:00hs a 23:55hs,Sáb. 08:00hs a 13:00hs y 17:00hs a 23:55hs,,-32.230926,-58.144822
5704,8149546,STELLA MARIS ROUGIER E HIJOS-L.COLON,VIEYTES 53,COLON,Entre Ríos,1,1,1,0,Lun. a Vie. 08:00hs a 12:30hs y 16:00hs a 19:30hs,,,-32.226162,-58.14376
5045,8159258,AGL SEGUROS ERRAMUSPE ENRIQUE,LUGONES 21,COLON,Entre Ríos,0,0,1,0,Lun. a Vie. 08:00hs a 12:00hs y 16:00hs a 20:00hs,Sáb. 09:00hs a 12:00hs ,,-32.220081,-58.136103
5519,8159441,AGL SEGUROS PACCOT CARLOS RAMIRO,MORENO 302,COLON,Entre Ríos,0,0,1,0,Lun. a Vie. 08:00hs a 14:00hs ,,,-32.251219,-58.205938
