IDSUCURSAL,NRO_AGENTE_PF,NOMBRE,DIRECCION,LOCALIDAD,PROVINCIA,WESTERN_UNION,ENVIO_NACIONAL,PAGO_FACTURAS,RECARGA_FACIL,HS_LAV,HS_SABADO,HS_DOMINGO,LATITUD,LONGITUD
518,9902315,CORREO SANTO TOME (STA FE),ALVEAR 2517,SANTO TOME,Santa Fe,1,0,1,0,Lun. a Vie. 07:30hs a 13:00hs y 17:00hs a 20:00hs,,,-31.66767667,-60.76750333
1860,9749117,PANADERIA CLAUDIA,MARIANO CANDIOTTI 2778,SANTO TOME,Santa Fe,0,1,1,0,Lun. a Vie. 07:30hs a 13:00hs y 16:00hs a 20:00hs,Sáb. 08:00hs a 13:00hs y 16:00hs a 20:00hs,,-31.67469551,-60.7559638
2138,10349059,SARRA Y ASOCIADOS,AV. LUJAN 2659,SANTO TOME,Santa Fe,0,0,1,0,Lun. a Vie. 08:00hs a 13:00hs y 16:00hs a 20:00hs,Sáb. 09:00hs a 13:00hs ,,-31.67144382,-60.7677091
4016,10249899,AGENCIA SANTO TOME,BALCARCE 2102,SANTO TOME,Santa Fe,0,1,1,0,Lun. a Vie. 09:00hs a 12:30hs y 16:00hs a 19:00hs,Sáb. 09:00hs a 12:00hs ,,-31.67732,-60.765596
4988,8149401,AZ SEGUROS GENERALES,GABOTO 1898,SANTO TOME,Santa Fe,0,1,1,0,Lun. a Vie. 09:00hs a 12:00hs y 16:00hs a 19:00hs,,,-31.66992,-60.761681
5647,8149533,AGL SEGUROS CHEMES,25 DE MAYO 1718,SANTO TOME,Santa Fe,0,0,1,0,Lun. a Vie. 08:00hs a 12:00hs y 16:00hs a 19:00hs,,,-31.655807,-60.707947
