IDSUCURSAL,NRO_AGENTE_PF,NOMBRE,DIRECCION,LOCALIDAD,PROVINCIA,WESTERN_UNION,ENVIO_NACIONAL,PAGO_FACTURAS,RECARGA_FACIL,HS_LAV,HS_SABADO,HS_DOMINGO,LATITUD,LONGITUD
1321,7149017,CENTRO DE COPIADO ALMAFUERTE,AV. GRAL PAZ 115,ALMAFUERTE,Córdoba,1,1,1,0,Lun. a Vie. 08:00hs a 12:30hs y 17:00hs a 20:30hs,Sáb. 09:00hs a 12:30hs ,,-32.194354,-64.251909
1657,11149044,PAGOS BARRIO BELGRANO ALMAFUERTE,9 DE JULIO 693,ALMAFUERTE,Córdoba,0,1,1,0,Lun. a Vie. 08:00hs a 13:00hs y 16:00hs a 19:00hs,Sáb. 08:00hs a 13:00hs y 16:00hs a 19:00hs,,-32.19272,-64.26105
3269,8749090,ESTEBAN PAZZELLI SEGUROS,AV. SAN MARTIN 650,ALMAFUERTE,Córdoba,0,1,1,0,Lun. a Vie. 08:00hs a 13:00hs y 14:00hs a 19:00hs,Sáb. 09:00hs a 13:00hs ,,-32.19184,-64.253232
4029,8149340,ORGANIZACION NELDO RAFFO SEGUROS III,PEDRO C. MOLINA 670,ALMAFUERTE,Córdoba,0,1,1,0,Lun. a Vie. 08:30hs a 12:30hs y 16:00hs a 20:00hs,Sáb. 09:00hs a 12:00hs ,,32.192967,-64.25243
6132,,CORREO ALMAFUERTE,TUCUMAN  378,ALMAFUERTE,Córdoba,1,0,0,0,Lun. a Vie. 0800 A 1300 1700 A 2000,,,-32.195443,-64.253862
