IDSUCURSAL,NRO_AGENTE_PF,NOMBRE,DIRECCION,LOCALIDAD,PROVINCIA,WESTERN_UNION,ENVIO_NACIONAL,PAGO_FACTURAS,RECARGA_FACIL,HS_LAV,HS_SABADO,HS_DOMINGO,LATITUD,LONGITUD
663,9902473,CORREO CAPITAN SARMIENTO,AV. BME MITRE 272,CAPITAN SARMIENTO,Buenos Aires,1,0,1,0,Lun. a Vie. 09:00hs a 17:00hs ,,,-34.17335491,-59.79235873
3096,6949448,ERASE UNA VEZ LIBRERIA,CARLOS URIOSTE 1172,CAPITAN SARMIENTO,Buenos Aires,0,1,1,0,Lun. a Vie. 08:30hs a 18:30hs ,,,-34.171164,-59.787893
3601,7449114,LE CIEL MODAS,AV. PERON 287,CAPITAN SARMIENTO,Buenos Aires,0,1,1,0,Lun. a Vie. 08:00hs a 13:00hs ,,,-34.178854,-59.785537
4409,8022034,SYN REMISES SOSA (484),12 DE OCTUBRE 553,CAPITAN SARMIENTO,Buenos Aires,0,0,1,0,Lun. a Vie. 06:00hs a 20:00hs ,Sáb. 06:00hs a 20:00hs ,,-34.647115,-58.547486
4410,8022036,SYN LA CABANA DE EMILIO (547),ANTARTIDA ARGENTINA 810,CAPITAN SARMIENTO,Buenos Aires,0,0,1,0,Lun. a Vie. 08:00hs a 20:00hs ,Sáb. 08:00hs a 20:00hs ,,-34.16496,-59.794548
4340,12449160,LA PLAZA KIOSCO,MITRE 107,CAPITAN SARMIENTO,Buenos Aires,1,1,1,0,Lun. a Vie. 08:00hs a 20:00hs ,,,-34.637157,-58.566635
5023,8022056,SYN ESPINEL GASPAR (592),AV. MITRE 230,CAPITAN SARMIENTO,Buenos Aires,0,0,1,0,Lun. a Vie. 08:00hs a 12:00hs y 15:00hs a 20:00hs,,,-34.163714,-59.788241
