IDSUCURSAL,NRO_AGENTE_PF,NOMBRE,DIRECCION,LOCALIDAD,PROVINCIA,WESTERN_UNION,ENVIO_NACIONAL,PAGO_FACTURAS,RECARGA_FACIL,HS_LAV,HS_SABADO,HS_DOMINGO,LATITUD,LONGITUD
738,9902571,CORREO TERMAS DE RIO HONDO,JUAN B. ALBERDI 766,TERMAS DE RIO HONDO,Santiago del Estero,1,0,1,0,Lun. a Vie. 08:00hs a 13:00hs y 17:00hs a 20:00hs,,,-27.494356,-64.865432
1398,11649182,CYBER EINSTEIN,AV. H. YRIGOYEN 247,TERMAS DE RIO HONDO,Santiago del Estero,1,1,1,0,Lun. a Vie. 08:00hs a 13:30hs y 17:00hs a 22:00hs,Sáb. 08:00hs a 14:00hs ,Dom. 08:00hs a 14:00hs ,-27.502274,-64.856198
1515,11649213,M Y M DRUGSTORE,JUAN BAUTISTA ALBERDI Y 12 DE OCTUBRE,TERMAS DE RIO HONDO,Santiago del Estero,0,1,1,0,Lun. a Vie. 09:00hs a 13:00hs y 17:00hs a 20:00hs,Sáb. 09:00hs a 13:00hs y 17:00hs a 20:00hs,,-27.492028,-64.867837
1516,11649214,TOMBOLA,LAS ACACIAS 159,TERMAS DE RIO HONDO,Santiago del Estero,0,0,1,0,Lun. a Vie. 07:00hs a 13:00hs y 17:30hs a 21:00hs,Sáb. 07:00hs a 13:00hs y 17:30hs a 21:00hs,Dom. 07:00hs a 13:00hs y 17:30hs a 19:00hs,-27.508482,-64.850176
3682,12049966,ETERNO,AV. BELGRANO 789,TERMAS DE RIO HONDO,Santiago del Estero,0,1,1,0,Lun. a Vie. 08:00hs a 13:00hs y 17:00hs a 21:00hs,Sáb. 08:00hs a 13:00hs y 17:00hs a 21:00hs,,-27.511379,-64.857644
4099,10249906,AGENCIA 670,LOS ANDES 62,TERMAS DE RIO HONDO,Santiago del Estero,1,1,1,0,Lun. a Vie. 08:00hs a 13:30hs y 17:30hs a 21:30hs,Sáb. 08:00hs a 13:30hs y 17:30hs a 21:30hs,,-27.494395,-64.856821
