IDSUCURSAL,NRO_AGENTE_PF,NOMBRE,DIRECCION,LOCALIDAD,PROVINCIA,WESTERN_UNION,ENVIO_NACIONAL,PAGO_FACTURAS,RECARGA_FACIL,HS_LAV,HS_SABADO,HS_DOMINGO,LATITUD,LONGITUD
569,9902368,CORREO CHIVILCOY,BELGRANO 7,CHIVILCOY,Buenos Aires,1,0,1,0,Lun. a Vie. 09:00hs a 17:00hs ,,,-34.89731375,-60.018213
1934,11849111,FARMACIA BOGLIOLO,AV. 22 DE OCTUBRE 184,CHIVILCOY,Buenos Aires,0,1,1,0,Lun. a Vie. 08:00hs a 12:00hs y 15:30hs a 19:30hs,,,-34.905332,-60.023238
1910,6949343,LIBRERIA SOL,PUEYRREDON 450,CHIVILCOY,Buenos Aires,1,1,1,0,Lun. a Vie. 07:00hs a 13:00hs y 16:00hs a 20:00hs,Sáb. 09:00hs a 13:00hs y 16:00hs a 20:00hs,,-34.889135,-60.013879
2892,9849119,A LO DE COQUI,AV. SOAREZ 289,CHIVILCOY,Buenos Aires,1,1,1,0,Lun. a Vie. 08:00hs a 22:00hs ,,,-34.904643,-60.018587
3183,9849130,MINIMERCADO AL PASO,MONS. D ANDREA 268,CHIVILCOY,Buenos Aires,0,1,1,0,Lun. a Vie. 08:30hs a 23:00hs ,Sáb. 08:30hs a 18:00hs ,,-34.889531,-60.037701
3451,7249114,MEGAMIX SH,CALIXTO CALDERON 468,CHIVILCOY,Buenos Aires,0,1,1,0,Lun. a Vie. 08:30hs a 21:00hs ,Sáb. 08:30hs a 21:00hs ,Dom. 16:00hs a 21:00hs ,-34.904022,-60.027225
3468,9749248,SEDNA POLIRUBRO,GUEMES 438,CHIVILCOY,Buenos Aires,0,1,1,0,Lun. a Vie. 08:00hs a 20:00hs ,,,-34.896338,-60.00468
4145,7249126,CITY SHOP,AV. SOAREZ 187,CHIVILCOY,Buenos Aires,0,1,1,0,Lun. a Vie. 08:30hs a 12:30hs y 15:30hs a 20:30hs,Sáb. 09:00hs a 12:30hs y 16:00hs a 20:30hs,,-34.893658,-60.015311
5613,8749267,GRUPO CASULLO,PELLEGRINI 295,CHIVILCOY,Buenos Aires,1,1,1,0,Lun. a Vie. 08:30hs a 13:00hs y 15:00hs a 18:30hs,,,-34.892177,-60.015308
