IDSUCURSAL,NRO_AGENTE_PF,NOMBRE,DIRECCION,LOCALIDAD,PROVINCIA,WESTERN_UNION,ENVIO_NACIONAL,PAGO_FACTURAS,RECARGA_FACIL,HS_LAV,HS_SABADO,HS_DOMINGO,LATITUD,LONGITUD
797,9902636,CORREO ROSARIO DE LA FRONTERA,PROVINCIA DE SALTA 296,ROSARIO DE LA FRONTERA,Salta,1,0,1,0,Lun. a Vie. 08:00hs a 13:00hs y 17:00hs a 20:00hs,,,-25.802175,-64.972435
1926,11249012,YODIMAJA,LERMA Y JURAMENTO,ROSARIO DE LA FRONTERA,Salta,0,0,1,0,Lun. a Vie. 09:00hs a 14:00hs y 17:00hs a 21:00hs,Sáb. 09:00hs a 13:00hs y 18:00hs a 21:00hs,,-25.790502,-64.962051
3942,8649078,CANDELARIA,ARMANDO REPETTO 2,ROSARIO DE LA FRONTERA,Salta,1,1,1,0,Lun. a Vie. 07:00hs a 20:00hs ,Sáb. 07:00hs a 20:00hs ,,-25.798651,-64.967651
5514,8159437,AGL SEGUROS JULIAN GARCIA,SALTA 137 LOCAL 1,ROSARIO DE LA FRONTERA,Salta,0,0,1,0,Lun. a Vie. 08:30hs a 12:30hs y 17:30hs a 20:30hs,Sáb. 09:30hs a 12:30hs ,,-25.801944,-64.972805
5516,8159438,AGL SEGUROS JULIAN GARCIA 1,SALTA 137 LOCAL 2,ROSARIO DE LA FRONTERA,Salta,0,0,1,0,Lun. a Vie. 08:30hs a 12:30hs y 17:30hs a 20:30hs,Sáb. 09:30hs a 12:30hs ,,-25.801944,-64.972805
5517,8159439,AGL SEGUROS JULIAN GARCIA 2,SALTA 330,ROSARIO DE LA FRONTERA,Salta,0,0,1,0,Lun. a Vie. 08:30hs a 12:30hs y 17:30hs a 20:30hs,,,-25.801188,-64.974926
5518,8159440,AGL SEGUROS JULIAN GARCIA 3,MITRE 354,ROSARIO DE LA FRONTERA,Salta,0,0,1,0,Lun. a Vie. 08:30hs a 12:30hs y 17:30hs a 20:30hs,,,-25.796068,-64.972676
