IDSUCURSAL,NRO_AGENTE_PF,NOMBRE,DIRECCION,LOCALIDAD,PROVINCIA,WESTERN_UNION,ENVIO_NACIONAL,PAGO_FACTURAS,RECARGA_FACIL,HS_LAV,HS_SABADO,HS_DOMINGO,LATITUD,LONGITUD
342,9902121,CORREO LOMAS DEL MIRADOR,AV. BDIER GRAL J. M. DE ROSAS 691,LOMAS DEL MIRADOR,Buenos Aires,1,0,1,0,Lun. a Vie. 10:00hs a 18:00hs ,,,-34.666301,-58.526775
1785,8849985,LOCUTORIO MIRADOR,AV. J.M.ROSAS 439,LOMAS DEL MIRADOR,Buenos Aires,1,1,1,0,Lun. a Vie. 09:30hs a 20:00hs ,Sáb. 09:30hs a 20:00hs ,Dom. 09:30hs a 20:00hs ,-34.66490958,-58.52335892
2846,12049510,MAXIKIOSCO LO DE LALO II,AV. SAN MARTIN 2409,LOMAS DEL MIRADOR,Buenos Aires,1,1,1,0,Lun. a Vie. 08:00hs a 19:30hs ,Sáb. 08:30hs a 19:30hs ,,-34.661576,-58.54215
5227,10359069,AGL SEGUROS NICORA I,AV MOSCONI 1493,LOMAS DEL MIRADOR,Buenos Aires,0,0,1,0,Lun. a Vie. 09:00hs a 19:00hs ,Sáb. 09:00hs a 13:00hs ,,-34.665061,-58.543713
5915,8149584,ORGANIZACION TROIANO SAN MARTIN,SAN MARTIN 2887,LOMAS DEL MIRADOR,Buenos Aires,0,1,1,0,Lun. a Vie. 09:00hs a 19:00hs ,,,-34.664752,-58.538468
5926,6749138,PINTURERIA UNIVERSAL,AV MOSCONI 1550,LOMAS DEL MIRADOR,Buenos Aires,0,1,1,0,Lun. a Vie. 08:00hs a 18:00hs ,Sáb. 08:00hs a 13:00hs ,,-34.665426,-58.544563
