IDSUCURSAL,NRO_AGENTE_PF,NOMBRE,DIRECCION,LOCALIDAD,PROVINCIA,WESTERN_UNION,ENVIO_NACIONAL,PAGO_FACTURAS,RECARGA_FACIL,HS_LAV,HS_SABADO,HS_DOMINGO,LATITUD,LONGITUD
852,9902702,CORREO ARISTOBULO DEL VALLE,AV. AMERICA 877,ARISTOBULO DEL VALLE,Misiones,1,0,1,0,Lun. a Vie. 08:00hs a 13:00hs y 16:00hs a 17:00hs,,,-27.097738,-54.894326
4482,11849240,NUEVA FARMACIA DEL SALTO,AV. DE LAS AMERICAS 1353,ARISTOBULO DEL VALLE,Misiones,0,1,1,0,Lun. a Vie. 08:30hs a 12:30hs y 16:00hs a 20:30hs,,,-27.084471,-54.827925
4513,8149367,RENE GROS SEGUROS,AV. DE LAS AMERICAS 770,ARISTOBULO DEL VALLE,Misiones,0,1,1,0,Lun. a Vie. 08:30hs a 12:30hs y 16:30hs a 20:30hs,Sáb. 09:00hs a 13:00hs ,,-27.084568,-54.83661
5157,8149449,SEGUROS WOLEMBERG,LEANDRO ALEM 608,ARISTOBULO DEL VALLE,Misiones,0,1,1,0,Lun. a Vie. 08:30hs a 12:30hs y 16:30hs a 20:30hs,Sáb. 08:30hs a 12:30hs ,,-27.100177,-54.897976
5627,8149523,VERDUN SEGUROS,AV DE LAS AMERICAS Y LA PAZ,ARISTOBULO DEL VALLE,Misiones,1,1,1,0,Lun. a Vie. 08:00hs a 20:00hs ,Sáb. 08:00hs a 13:00hs ,,-27.090764,-54.873994
