IDSUCURSAL,NRO_AGENTE_PF,NOMBRE,DIRECCION,LOCALIDAD,PROVINCIA,WESTERN_UNION,ENVIO_NACIONAL,PAGO_FACTURAS,RECARGA_FACIL,HS_LAV,HS_SABADO,HS_DOMINGO,LATITUD,LONGITUD
658,9902466,CORREO BENITO JUAREZ,DR. MARIANO MORENO 100,BENITO JUAREZ,Buenos Aires,1,0,1,0,Lun. a Vie. 08:00hs a 13:00hs y 16:00hs a 19:00hs,,,-37.673291,-59.809476
1140,8049062,MULTIPAGO(BA),MARIANO ROLDAN 37,BENITO JUAREZ,Buenos Aires,0,1,1,0,Lun. a Vie. 08:00hs a 13:00hs ,,,-37.6758385,-59.8063645
1526,7949007,HELADERIA ABUELA JUANA,AV. ZABALZA 494,BENITO JUAREZ,Buenos Aires,0,1,1,0,Lun. a Vie. 10:00hs a 18:00hs ,,,-37.670335,-59.811341
2924,12049554,MI KIOSCO,AV. LIBERTAD 164,BENITO JUAREZ,Buenos Aires,0,1,1,0,Lun. a Vie. 08:00hs a 13:00hs y 15:00hs a 21:00hs,,,-37.671212,-59.807514
5770,8159530,AGL SEGUROS LEON,AV. URQUIZA 87,BENITO JUAREZ,Buenos Aires,0,0,1,0,Lun. a Vie. 08:00hs a 12:00hs y 16:00hs a 19:30hs,,,-37.67194,-59.802774
