IDSUCURSAL,NRO_AGENTE_PF,NOMBRE,DIRECCION,LOCALIDAD,PROVINCIA,WESTERN_UNION,ENVIO_NACIONAL,PAGO_FACTURAS,RECARGA_FACIL,HS_LAV,HS_SABADO,HS_DOMINGO,LATITUD,LONGITUD
802,9902642,CORREO CHARATA,MONSENOR NICOLAS DE CARLO 490,CHARATA,Chaco,1,0,1,0,Lun. a Vie. 07:30hs a 13:00hs y 16:00hs a 19:00hs,,,-27.215117,-61.185683
3281,11649324,NEW CIBER ENLACE,JURAMENTO Y 9 DE JULIO,CHARATA,Chaco,0,1,1,0,Lun. a Vie. 08:00hs a 12:00hs y 16:00hs a 20:00hs,,,-27.218696,-61.197223
4101,12449093,OPEN SHOP 00,GUEMES 740,CHARATA,Chaco,1,1,1,0,Lun. a Vie. 00:00hs a 23:59hs ,Sáb. 00:00hs a 23:59hs ,,-27.221809,-61.184751
5123,11949591,MULTIRUBRO RC,LINIERS 382,CHARATA,Chaco,0,1,1,0,Lun. a Vie. 07:30hs a 13:00hs y 17:00hs a 21:00hs,Sáb. 08:00hs a 13:00hs y 17:00hs a 21:00hs,,-27.214303,-61.183768
5240,8159318,AGL SEGUROS PACHECO,BLAS PARERA 681,CHARATA,Chaco,0,0,1,0,Lun. a Vie. 07:30hs a 12:00hs y 17:00hs a 20:30hs,Sáb. 07:30hs a 12:00hs ,,-27.219324,-61.183005
