IDSUCURSAL,NRO_AGENTE_PF,NOMBRE,DIRECCION,LOCALIDAD,PROVINCIA,WESTERN_UNION,ENVIO_NACIONAL,PAGO_FACTURAS,RECARGA_FACIL,HS_LAV,HS_SABADO,HS_DOMINGO,LATITUD,LONGITUD
878,9902729,CORREO GENERAL RAMIREZ,SARGENTO JUAN BAUTISTA CABRAL 30,GENERAL RAMIREZ,Entre Ríos,1,0,1,0,Lun. a Vie. 07:30hs a 13:00hs y 17:00hs a 20:00hs,,,-32.176879,-60.199982
3469,12049846,DRUGSTORE TUS AMIGOS,SAN MARTIN 360,GENERAL RAMIREZ,Entre Ríos,0,1,1,0,Lun. a Vie. 09:00hs a 13:00hs y 16:00hs a 23:00hs,,,-32.176405,-60.200377
3474,12049850,MAXIKIOSCO OASIS,ITUZAINGO 366,GENERAL RAMIREZ,Entre Ríos,0,1,1,0,Lun. a Vie. 08:00hs a 13:00hs y 16:00hs a 22:00hs,Sáb. 08:00hs a 13:00hs y 16:00hs a 22:00hs,,-32.177962,-60.206229
4793,8349021,EL RINCONCITO DE EUGE,BERNARDO DUBNER 215,GENERAL RAMIREZ,Entre Ríos,0,1,1,0,Lun. a Vie. 08:00hs a 20:00hs ,Sáb. 08:00hs a 20:00hs ,,-32.163553,-60.193539
4919,8149383,AGENCIA SERGIO COGNO - LOCAL RAMIREZ,SARGENTO CABRAL 270,GENERAL RAMIREZ,Entre Ríos,0,1,1,0,Lun. a Vie. 08:00hs a 12:30hs ,Sáb. 08:00hs a 12:30hs ,,-32.178852,-60.197855
4929,8159252,AGL SPENGLER ASOCIADOS,ANTONIO BERUTTI 537,GENERAL RAMIREZ,Entre Ríos,0,0,1,0,Lun. a Vie. 08:00hs a 12:30hs y 16:00hs a 20:00hs,Sáb. 08:00hs a 12:30hs ,,-32.179791,-60.200821
