IDSUCURSAL,NRO_AGENTE_PF,NOMBRE,DIRECCION,LOCALIDAD,PROVINCIA,WESTERN_UNION,ENVIO_NACIONAL,PAGO_FACTURAS,RECARGA_FACIL,HS_LAV,HS_SABADO,HS_DOMINGO,LATITUD,LONGITUD
823,9902669,CORREO RIO COLORADO,MORENO 495,RIO COLORADO,Río Negro,1,0,1,0,Lun. a Vie. 08:00hs a 13:00hs y 16:00hs a 19:00hs,,,-38.990477,-64.096709
893,5149606,FARMACIA SIGMA,BERUTTI Y SAN MARTIN,RIO COLORADO,Río Negro,0,0,1,0,Lun. a Vie. 08:30hs a 12:30hs y 16:30hs a 20:00hs,Sáb. 08:30hs a 12:30hs ,,-38.0000318,-67.88857
1445,10249438,CLICK,AV. SAN MARTIN 675,RIO COLORADO,Río Negro,1,1,1,0,Lun. a Vie. 08:30hs a 13:00hs y 15:00hs a 24:00hs,Sáb. 08:30hs a 13:00hs y 15:00hs a 24:00hs,Dom. 08:30hs a 13:00hs y 15:00hs a 24:00hs,-38.000031,-67.888582
1864,9849078,SUPER LAGUNA,AV. BERUTTI 991,RIO COLORADO,Río Negro,0,0,1,0,Lun. a Vie. 09:00hs a 13:00hs y 17:30hs a 22:00hs,Sáb. 09:00hs a 13:00hs y 17:30hs a 22:00hs,,-38.993151,-64.102017
1895,6349332,D MOVILES,IRIGOYEN 215,RIO COLORADO,Río Negro,0,0,1,0,Lun. a Vie. 09:00hs a 12:30hs y 17:00hs a 21:30hs,Sáb. 09:00hs a 12:30hs y 19:00hs a 21:00hs,,-38.986647,-64.099056
3703,6427028,COOP OBRERA RIO COLORADO (43),SAN MARTIN 879,RIO COLORADO,Río Negro,0,0,1,0,Lun. a Vie. 08:30hs a 12:30hs y 16:30hs a 21:00hs,Sáb. 08:30hs a 21:00hs ,,-38.994681,-64.096486
