IDSUCURSAL,NRO_AGENTE_PF,NOMBRE,DIRECCION,LOCALIDAD,PROVINCIA,WESTERN_UNION,ENVIO_NACIONAL,PAGO_FACTURAS,RECARGA_FACIL,HS_LAV,HS_SABADO,HS_DOMINGO,LATITUD,LONGITUD
502,9902298,CORREO VILLAGUAY,DR. MARIANO MORENO 921,VILLAGUAY,Entre Ríos,1,0,1,0,Lun. a Vie. 07:30hs a 13:00hs y 17:00hs a 20:00hs,,,-31.861617,-59.029507
906,8149109,TARJETA CONSUMAX VILLAGUAY,SAN MARTIN 486,VILLAGUAY,Entre Ríos,0,0,1,0,Lun. a Vie. 08:00hs a 16:00hs ,,,-31.865616,-59.027465
3298,11949262,SHOCK SEGURIDAD E INDUMENTARIA INDUSTRIA,RIVADAVIA 44,VILLAGUAY,Entre Ríos,1,1,1,0,Lun. a Vie. 08:00hs a 12:00hs y 16:00hs a 20:00hs,Sáb. 08:00hs a :12hs ,,-31.869466,-59.028624
3299,12049747,DRUGSTORE KEVIN,LEOPOLDO HERRERA 183,VILLAGUAY,Entre Ríos,0,1,1,0,Lun. a Vie. 07:00hs a 13:00hs y 14:00hs a 20:00hs,,,-31.868281,-59.031742
3932,6749127,LA FERRETERA,SAN MARTIN 1535,VILLAGUAY,Entre Ríos,0,1,1,0,Lun. a Vie. 08:00hs a 12:00hs y 15:00hs a 20:00hs,Sáb. 08:00hs a 12:30hs y 15:30hs a 20:00hs,,-31.855773,-59.027292
5195,8159305,AGL SEGUROS ORGANIZACION FIRPO,MORENO 1068,VILLAGUAY,Entre Ríos,0,0,1,0,Lun. a Vie. 08:00hs a 12:00hs y 15:30hs a 19:30hs,Sáb. 08:00hs a 12:30hs ,,-31.860235,-59.029711
5953,8159510,AGL SEGUROS TOURNOUD KAREN YAEL,SAN MARTIN 1098,VILLAGUAY,Entre Ríos,0,0,1,0,Lun. a Vie. 08:00hs a 12:00hs y 16:00hs a 20:00hs,Sáb. 09:30hs a 12:00hs ,,-31.851538,59.027311
