IDSUCURSAL,NRO_AGENTE_PF,NOMBRE,DIRECCION,LOCALIDAD,PROVINCIA,WESTERN_UNION,ENVIO_NACIONAL,PAGO_FACTURAS,RECARGA_FACIL,HS_LAV,HS_SABADO,HS_DOMINGO,LATITUD,LONGITUD
348,9902127,CORREO GARIN,CASTELAR 974,GARIN,Buenos Aires,1,0,1,0,Lun. a Vie. 09:30hs a 17:30hs ,,,-34.422627,-58.732319
2402,10249660,AGENCIA EL ENAMORADO DE LA SUERTE 2,FRUCTUOSO DIAZ 793,GARIN,Buenos Aires,1,1,1,0,Lun. a Vie. 08:00hs a 20:00hs ,Sáb. 08:00hs a 18:00hs ,,-34.423836,-58.745642
4772,8249095,COFIN,GOLFERS GOLF CLUB 2911 PISO 1 LOC 22,GARIN,Buenos Aires,0,0,1,0,Lun. a Vie. 10:00hs a 16:00hs ,,,-34.443307,-58.755432
6719,,NSA AR GARIN,AV. BELGRANO  547,GARIN,Buenos Aires,1,0,0,0,Lun. a Vie. 0900 A 1300 1600 A 2000,Sáb. 0900 A 1300 1600 A 2000,,-34.420628,-58.729168
5780,8159519,AGL SEGUROS ROMAN,AV. BELGRANO 802,GARIN,Buenos Aires,0,0,1,0,Lun. a Vie. 09:00hs a 18:00hs ,,,-34.418659,-58.727137
5172,8149452,SEGURAUTO GARIN,CHURICH 552,GARIN,Buenos Aires,0,1,1,0,Lun. a Vie. 09:00hs a 19:00hs ,,,-34.419232,-58.730443
