IDSUCURSAL,NRO_AGENTE_PF,NOMBRE,DIRECCION,LOCALIDAD,PROVINCIA,WESTERN_UNION,ENVIO_NACIONAL,PAGO_FACTURAS,RECARGA_FACIL,HS_LAV,HS_SABADO,HS_DOMINGO,LATITUD,LONGITUD
1465,9902803,CORREO TRES ISLETAS,PARAGUAY 199,TRES ISLETAS,Chaco,1,0,1,0,Lun. a Vie. 07:30hs a 13:00hs y 16:00hs a 19:00hs,,,-26.340691,-60.430169
1745,10249539,SUB AGENCIA QUINIELA Y LOTERIA 184,ALBERDI 1,TRES ISLETAS,Chaco,0,1,1,0,Lun. a Vie. 08:00hs a 13:00hs y 17:00hs a 20:30hs,Sáb. 08:30hs a 13:00hs y 17:00hs a 20:30hs,,-26.338366,-60.427589
3107,6949450,LIBRERIA ARCO IRIS,PARAGUAY 342,TRES ISLETAS,Chaco,0,1,1,0,Lun. a Vie. 08:00hs a 12:00hs y 16:00hs a 20:00hs,Sáb. 08:00hs a 12:00hs y 16:00hs a 20:00hs,,-26.341999,-60.431757
4495,12449196,MAXI KIOSKO ONE,QTA 74/64 MZ 2 PC 21,TRES ISLETAS,Chaco,0,1,1,0,Lun. a Vie. 08:00hs a 13:00hs y 16:00hs a 20:00hs,,,-26.338943,-60.429885
4546,10249963,FRANCISCO 1,ACC.EX C.DE MALVINAS Y PIEDRA ESMERALDA,TRES ISLETAS,Chaco,0,1,1,0,Lun. a Vie. 07:30hs a 13:30hs y 15:30hs a 20:30hs,Sáb. 07:30hs a 13:30hs y 15:30hs a 20:30hs,,-26.334718,-60.425486
4547,10249964,FRANCISCO,25 DE MAYO Y BELGRANO,TRES ISLETAS,Chaco,0,1,1,0,Lun. a Vie. 07:30hs a 13:30hs y 15:30hs a 20:30hs,Sáb. 07:30hs a 13:30hs y 15:30hs a 20:30hs,,-26.336497,-60.428962
