IDSUCURSAL,NRO_AGENTE_PF,NOMBRE,DIRECCION,LOCALIDAD,PROVINCIA,WESTERN_UNION,ENVIO_NACIONAL,PAGO_FACTURAS,RECARGA_FACIL,HS_LAV,HS_SABADO,HS_DOMINGO,LATITUD,LONGITUD
35,5149517,FARMACIA MAGA SHOP SARANDI,AV. MITRE 3385,SARANDI,Buenos Aires,0,1,1,0,Lun. a Vie. 10:30hs a 18:30hs ,Sáb. 10:30hs a 18:30hs ,,-34.684507,-58.34191312
369,9902152,CORREO SARANDI,AV. PTE BARTOLOME MITRE 1899,SARANDI,Buenos Aires,1,0,1,0,Lun. a Vie. 10:00hs a 18:00hs ,,,-34.669348,-58.355156
1217,90003018,C. S. WAL MART SARANDI,AUTOPISTA BUENOS AIRES - LA PLATA KM.9,SARANDI,Buenos Aires,1,1,1,0,Lun. a Vie. 08:00hs a 22:00hs ,Sáb. 08:00hs a 22:00hs ,Dom. 08:00hs a 22:00hs ,-34.664013,-58.343948
1013,5149689,FARMACIA MAGA SHOP EL ALTO A,GUEMES 850,SARANDI,Buenos Aires,0,1,1,0,Lun. a Vie. 09:00hs a 18:00hs ,Sáb. 08:00hs a 20:00hs ,,-34.6774205,-58.36540675
1682,6949307,LIBRERIA EL NEGRO,AV. BME MITRE 2594,SARANDI,Buenos Aires,1,1,1,0,Lun. a Vie. 09:00hs a 17:00hs ,,,-34.67629743,-58.34811751
1738,12049017,MAXIKIOSCO LO DE MANU,AV. MITRE 3869,SARANDI,Buenos Aires,0,1,1,0,Lun. a Vie. 09:00hs a 18:00hs ,,,-34.6884192,-58.33800904
2225,11849135,FARMACIA DIAMANTY,AV. MITRE 2702,SARANDI,Buenos Aires,0,1,1,0,Lun. a Vie. 09:00hs a 18:00hs ,Sáb. 09:00hs a 13:00hs ,,-34.677292,-58.347314
5573,8149507,ATM BASE SARANDI,AV. BELGRANO 2427,SARANDI,Buenos Aires,0,1,1,0,Lun. a Vie. 10:00hs a 17:00hs ,,,-34.678761,-58.35361
