IDSUCURSAL,NRO_AGENTE_PF,NOMBRE,DIRECCION,LOCALIDAD,PROVINCIA,WESTERN_UNION,ENVIO_NACIONAL,PAGO_FACTURAS,RECARGA_FACIL,HS_LAV,HS_SABADO,HS_DOMINGO,LATITUD,LONGITUD
661,9902470,CORREO BALCARCE,CALLE 19 NRO 552,BALCARCE,Buenos Aires,1,0,1,0,Lun. a Vie. 08:30hs a 13:00hs y 16:00hs a 19:00hs,,,-37.847279,-58.258636
1536,9849029,MINICENTRO PETTY,CALLE 7 NRO 41,BALCARCE,Buenos Aires,0,1,1,0,Lun. a Vie. 07:00hs a 13:00hs y 15:00hs a 21:00hs,Sáb. 07:00hs a 13:00hs y 15:00hs a 21:00hs,Dom. 07:00hs a 13:00hs y 15:00hs a 21:00hs,-37.83415967,-58.26113467
2252,7549995,MACU,CALLE 22 NRO 665,BALCARCE,Buenos Aires,0,1,1,0,Lun. a Vie. 08:00hs a 18:00hs ,,,-37.84999075,-58.25388533
5814,8159548,AGL SEGUROS RODRIGUEZ EDUARDO,CALLE 22 NRO 592,BALCARCE,Buenos Aires,0,0,1,0,Lun. a Vie. 08:30hs a 12:00hs y 15:30hs a 19:30hs,,,-37.848512,-58.252318
6030,8159613,AGL SEGUROS BARCELLINI,KELLY 802,BALCARCE,Buenos Aires,0,0,1,0,Lun. a Vie. 08:00hs a 12:00hs ,,,-37.849477,-58.259557
6031,8159614,AGL SEGUROS PACELLA,AV KELLY 760,BALCARCE,Buenos Aires,0,0,1,0,Lun. a Vie. 08:00hs a 12:00hs y 16:00hs a 20:00hs,,,-37.848887,-58.258842
