IDSUCURSAL,NRO_AGENTE_PF,NOMBRE,DIRECCION,LOCALIDAD,PROVINCIA,WESTERN_UNION,ENVIO_NACIONAL,PAGO_FACTURAS,RECARGA_FACIL,HS_LAV,HS_SABADO,HS_DOMINGO,LATITUD,LONGITUD
194,5207048,AXION ZARATE (925),19 DE MARZO 199,ZARATE,Buenos Aires,0,0,0,1,Lun. a Vie. 00:00hs a 24:00hs ,Sáb. 00:00hs a 24:00hs ,Dom. 00:00hs a 24:00hs ,-34.097204,-59.022382
424,9902220,CORREO ZARATE,FELIX PAGOLA 35,ZARATE,Buenos Aires,1,0,1,0,Lun. a Vie. 09:30hs a 17:30hs ,,,-34.09580657,-59.024591
2110,90001128,C.S. CARREFOUR ZARATE,LAVALLE 1879,ZARATE,Buenos Aires,1,1,1,0,Lun. a Vie. 10:00hs a 19:00hs ,Sáb. 10:00hs a 14:00hs ,,-34.11370224,-59.01972612
4113,5207111,AXION ZARATE BRAZO LARGO (973),RUTA NAC.193 Y RUTA NAC.12,ZARATE,Buenos Aires,0,0,0,1,Lun. a Vie. 00:00hs a 24:00hs ,Sáb. 00:00hs a 24:00hs ,Dom. 00:00hs a 24:00hs ,-34.124442,-59.023023
3992,10249892,AGENCIA LAVALLE,LAVALLE 1798,ZARATE,Buenos Aires,0,1,1,0,Lun. a Vie. 09:00hs a 18:00hs ,,,-34.112386,-59.020235
4787,6749131,PAGOLA FACIL,FELIX PAGOLA 493,ZARATE,Buenos Aires,1,1,1,0,Lun. a Vie. 09:00hs a 18:00hs ,,,-34.091845,-59.027911
5325,8149468,SEGUROS ZARATE,ALEM 116,ZARATE,Buenos Aires,0,1,1,0,Lun. a Vie. 08:00hs a 17:00hs ,,,-34.097496,-59.026102
5572,8149504,ROJANA SEGUROS,SARMIENTO 302,ZARATE,Buenos Aires,0,0,1,0,Lun. a Vie. 08:00hs a 12:00hs y 16:00hs a 19:00hs,,,-34.095245,-59.03048
