IDSUCURSAL,NRO_AGENTE_PF,NOMBRE,DIRECCION,LOCALIDAD,PROVINCIA,WESTERN_UNION,ENVIO_NACIONAL,PAGO_FACTURAS,RECARGA_FACIL,HS_LAV,HS_SABADO,HS_DOMINGO,LATITUD,LONGITUD
419,9902214,CORREO GENERAL RODRIGUEZ,AV. DEL LIBERTADOR GRAL SAN MARTIN 233,GENERAL RODRIGUEZ,Buenos Aires,1,0,1,0,Lun. a Vie. 09:30hs a 17:30hs ,,,-34.607136,-58.950429
916,8849341,LOCUTORIO AVENIDA (GRAL. ROD),BERNARDO DE IRIGOYEN 638,GENERAL RODRIGUEZ,Buenos Aires,1,1,1,0,Lun. a Vie. 09:00hs a 18:00hs ,Sáb. 09:00hs a 13:00hs ,,-34.60831135,-58.95482747
2047,90001096,C.S. CARREFOUR GENERAL RODRIGUEZ,BERNARDO DE IRIGOYEN 1500,GENERAL RODRIGUEZ,Buenos Aires,1,1,1,0,Lun. a Vie. 08:30hs a 22:00hs ,Sáb. 08:30hs a 22:00hs ,Dom. 09:00hs a 14:00hs ,-34.611519,-58.941405
2670,5319195,CARREFOUR EXPRESS (0524),BERNARDO DE IRIGOYEN 746,GENERAL RODRIGUEZ,Buenos Aires,0,0,1,0,Lun. a Vie. 08:00hs a 22:00hs ,Sáb. 08:00hs a 22:00hs ,Dom. 11:00hs a 20:00hs ,-34.613731,-58.968583
2855,11949167,POLIRRUBRO MR,INTENDENTE COLOBRARO (RUTA 5) 1689,GENERAL RODRIGUEZ,Buenos Aires,0,1,1,0,Lun. a Vie. 09:00hs a 18:00hs ,Sáb. 09:00hs a 18:00hs ,,-34.579716,-59.092709
3515,7449110,B+POSITIVO,2 DE ABRIL 954,GENERAL RODRIGUEZ,Buenos Aires,0,1,1,0,Lun. a Vie. 10:00hs a 13:30hs y 16:30hs a 20:30hs,,,-34.607469,-58.950016
5239,8159312,AGL SEGUROS KARINA,H.YRIGOYEN 828,GENERAL RODRIGUEZ,Buenos Aires,0,0,1,0,Lun. a Vie. 09:00hs a 19:00hs ,,,-34.603509,-58.950452
